{
    "routeId": "6011",
    "routeNum": "6011",
    "routeName": "인천공항 ↔ 월계/길음/성북/안국동/연세대",
    "type": "normal",
    "company": "(주)공항리무진",
    "companyWebsite": "http://airportlimousine.co.kr",
    "companyTel": "02-2664-9898",
    "operationHours": {
        "first": "04:10",
        "last": "20:10 (월계대우아파트(기점) 기준)"
    },
    "interval": "10-55분",
    "fare": 17000,
    "duration": "약 1시간 30분 ~ 1시간 50분(월계대우아파트(기점) 기준)",
    "airportStopInfo": {
        "terminal1": {
            "location": "5B-3 정류장 (1층 5,6 Gate 앞)"
        },
        "terminal2": {
            "location": "31번 정류장 (지하1층 교통센터)"
        }
    },
    "stations": [
        {
          "name": "월계대우아파트",
          "time": "1시간 30분"
        },
        {
          "name": "인덕대학교",
          "time": "1시간 27분"
        },
        {
          "name": "롯데캐슬루나아파트",
          "time": "1시간 24분"
        },
        {
          "name": "북서울꿈의숲",
          "time": "1시간 21분"
        },
        {
          "name": "창문여고",
          "time": "1시간 18분"
        },
        {
          "name": "길음2동주민센터",
          "time": "1시간 15분"
        },
        {
          "name": "길음뉴타운(길음역)",
          "time": "1시간 12분"
        },
        {
          "name": "미아리고개",
          "time": "1시간 9분"
        },
        {
          "name": "성신여대입구(돈암사거리)",
          "time": "1시간 6분"
        },
        {
          "name": "한성대입구(삼선교)",
          "time": "1시간 3분"
        },
        {
          "name": "성균관대입구",
          "time": "1시간 0분"
        },
        {
          "name": "창경궁(오라카이호텔.메이플레이스호텔)",
          "time": "57분"
        },
        {
          "name": "창덕궁(비원)",
          "time": "54분"
        },
        {
          "name": "안국역",
          "time": "51분"
        },
        {
          "name": "경복궁역",
          "time": "48분"
        },
        {
          "name": "이대후문",
          "time": "46분"
        },
        {
          "name": "연세대학교",
          "time": "44분"
        },
        {
          "name": "연희104고지(구 성산회관)",
          "time": "42분"
        },
        {
          "name": "마포구청역(월드컵경기장입구)",
          "time": "40분"
        },
        {
            "name": "인천공항 제1터미널",
            "time": "약 1시간 30분 소요"
        },
        {
            "name": "인천공항 제2터미널",
            "time": "약 1시간 45분 소요"
        }
    ],
    "geoInfo": {
        "stops": [
          {
            "name": "월계대우아파트",
            "lat": 37.6330104082865,
            "lng": 127.052142127080
          },
          {
              "name": "인덕대학교",
              "lat": 37.6279454425098,
              "lng": 127.055270868530
          },
          {
              "name": "롯데캐슬루나아파트",
              "lat": 37.6253344561819,
              "lng": 127.051111587840
          },
          {
              "name": "북서울꿈의숲",
              "lat": 37.6190168368775,
              "lng": 127.044158170546
          },
          {
              "name": "창문여고",
              "lat": 37.6121180987812,
              "lng": 127.035795563990
          },
          {
              "name": "길음2동주민센터",
              "lat": 37.6068673972293,
              "lng": 127.028171240795
          },
          {
              "name": "길음뉴타운(길음역)",
              "lat": 37.6037012867432,
              "lng": 127.024257383086
          },
          {
              "name": "미아리고개",
              "lat": 37.5988184098917,
              "lng": 127.021730567681
          },
          {
              "name": "성신여대입구(돈암사거리)",
              "lat": 37.5939040857522,
              "lng": 127.018286898856
          },
          {
              "name": "한성대입구(삼선교)",
              "lat": 37.5898867148207,
              "lng": 127.009256183463
          },
          {
              "name": "성균관대입구",
              "lat": 37.5828728395114,
              "lng": 126.998590474960
          },
          {
              "name": "창경궁(오라카이호텔.메이플레이스호텔)",
              "lat": 37.5791787257425,
              "lng": 126.996637684713
          },
          {
              "name": "창덕궁(비원)",
              "lat": 37.5775068850462,
              "lng": 126.988662345236
          },
          {
              "name": "안국역",
              "lat": 37.5766100301890,
              "lng": 126.985342733471
          },
          {
              "name": "경복궁역",
              "lat": 37.5761615289227,
              "lng": 126.971588450471
          },
          {
              "name": "이대후문",
              "lat": 37.5630374806182,
              "lng": 126.943585848675
          },
          {
              "name": "연세대학교",
              "lat": 37.5601726983642,
              "lng": 126.935540875903
          },
          {
              "name": "연희104고지(구 성산회관)",
              "lat": 37.5663792736459,
              "lng": 126.925682349620
          },
          {
              "name": "마포구청역(월드컵경기장입구)",
              "lat": 37.5628397952146,
              "lng": 126.902845232078
          }
        ]
    },
    "realtimeBusId": "1100092020",
    "usageGuide": [
        {
            "text": "본 노선은 예매 없이 현장결제만 가능합니다.",
            "links": []
        },
        {
            "text": "현장 결제: 교통카드, 현금",
            "links": []
        },
        {
            "text": "인천공항에서 탈 때는 매표소나 무인발권기에서 승차권을 구입하여 탑승하시길 바랍니다.",
            "links": []
        },
        {
            "text": "승객 1인당 28인치 이하(최대 20kg) 수하물 2개까지 허용됩니다. 추가 수하물 1개마다 8,000원의 요금이 부과됩니다.",
            "links": []
        },
        {
          "text": "🧳분실물 발생시: 032-743-7607~8",
          "links": []
        },
        {
          "text": "❓ 기타 문의 사항: (주간) 02-2664-9898, (야간) 02-2665-1094",
          "links": []
        }

    ]
}