{
    "routeId": "6016",
    "routeNum": "6016",
    "routeName": "인천공항 ↔ 남부터미널/방배/사당/이수",
    "type": "normal",
    "company": "(주)공항리무진",
    "companyWebsite": "http://airportlimousine.co.kr",
    "companyTel": "02-2664-9898",
    "operationHours": {
        "first": "04:35",
        "last": "20:00 (서울교대(기점) 기준)"
    },
    "interval": "22-50분",
    "fare": 17000,
    "duration": "약 1시간 15분 ~ 1시간 35분(서울교대 기준)",
    "airportStopInfo": {
        "terminal1": {
            "location": "6A-4 정류장 (1층 6 Gate 앞)"
        },
        "terminal2": {
            "location": "26번 정류장 (지하1층 교통센터)"
        }
    },
    "stations": [
        {
          "name": "서울교대(리더스빌딩)",
          "time": "1시간 25분"
        },
        {
          "name": "남부터미널",
          "time": "1시간 22분"
        },
        {
          "name": "서울고등학교",
          "time": "1시간 19분"
        },
        {
          "name": "방배역",
          "time": "1시간 16분"
        },
        {
          "name": "대우효령아파트",
          "time": "1시간 13분"
        },
        {
          "name": "서울교통공사",
          "time": "1시간 11분"
        },
        {
          "name": "사당역",
          "time": "1시간 9분"
        },
        {
          "name": "이수역, 사당우체국",
          "time": "1시간 7분"
        },
        {
          "name": "총신대입구.남성시장입구앞",
          "time": "1시간 5분"
        },
        {
          "name": "경문고교(배나무골 앞)",
          "time": "1시간 3분"
        },
        {
          "name": "정금마을.방배경찰서",
          "time": "1시간 1분"
        },
        {
          "name": "이수교(방배본동)",
          "time": "59분"
        },
        {
          "name": "흑석역",
          "time": "57분"
        },
        {
          "name": "효사정앞",
          "time": "55분"
        },
        {
            "name": "인천공항 제1터미널",
            "time": "약 1시간 25분 소요"
        },
        {
            "name": "인천공항 제2터미널",
            "time": "약 1시간 45분 소요"
        }
    ],
    "geoInfo": {
        "stops": [
          {
            "name": "서울교대(리더스빌딩)",
            "lat": 37.4875843581848,
            "lng": 127.0146172408930
          },
          {
              "name": "남부터미널",
              "lat": 37.4847845193831,
              "lng": 127.0142548820130
          },
          {
              "name": "서울고등학교",
              "lat": 37.4829877644621,
              "lng": 127.0049267627240
          },
          {
              "name": "방배역",
              "lat": 37.4813209530048,
              "lng": 126.9966392479890
          },
          {
              "name": "대우효령아파트",
              "lat": 37.4798791285368,
              "lng": 126.9921960824170
          },
          {
              "name": "서울교통공사",
              "lat": 37.4766799934147,
              "lng": 126.9861706117670
          },
          {
              "name": "사당역",
              "lat": 37.4788193324748,
              "lng": 126.9820210001760
          },
          {
              "name": "이수역, 사당우체국",
              "lat": 37.4825585208257,
              "lng": 126.9820257574220
          },
          {
              "name": "총신대입구.남성시장입구앞",
              "lat": 37.4875816902006,
              "lng": 126.9823524574560
          },
          {
              "name": "경문고교(배나무골 앞)",
              "lat": 37.4905167760884,
              "lng": 126.9826994756940
          },
          {
              "name": "정금마을.방배경찰서",
              "lat": 37.4932986481727,
              "lng": 126.9827808166950
          },
          {
              "name": "이수교(방배본동)",
              "lat": 37.4969703408186,
              "lng": 126.9834075957200
          },
          {
              "name": "흑석역",
              "lat": 37.5076793954693,
              "lng": 126.9653938592820
          },
          {
              "name": "효사정앞",
              "lat": 37.51156145421912,
              "lng": 126.96129759158549
          }
        ]
    },
    "realtimeBusId": "B1259",
    "usageGuide": [
        {
            "text": "본 노선은 예매 없이 현장결제만 가능합니다.",
            "links": []
        },
        {
            "text": "현장 결제: 교통카드, 현금",
            "links": []
        },
        {
            "text": "인천공항에서 탈 때는 매표소나 무인발권기에서 승차권을 구입하여 탑승하시길 바랍니다.",
            "links": []
        },
        {
            "text": "승객 1인당 28인치 이하(최대 20kg) 수하물 2개까지 허용됩니다. 추가 수하물 1개마다 8,000원의 요금이 부과됩니다.",
            "links": []
        },
        {
          "text": "🧳분실물 발생시: 032-743-7607~8",
          "links": []
        },
        {
          "text": "❓ 기타 문의 사항: (주간) 02-2664-9898, (야간) 02-2665-1094",
          "links": []
        }
    ]
}