{
    "routeId": "6600",
    "routeNum": "6600",
    "routeName": "인천공항 ↔ 거여역/위례동/장지역/세곡동",
    "type": "normal",
    "company": "(주)서울공항리무진",
    "companyWebsite": "http://www.seoulairbus.com",
    "companyTel": "02-577-1343",
    "operationHours": {
        "first": "04:00",
        "last": "17:20 (마천역.송파파크센트럴 기준)"
    },
    "interval": "60-235분",
    "fare": 17000,
    "duration": "약 1시간 25분 ~ 2시간30분",
    "airportStopInfo": {
        "terminal1": {
            "location": "4B-4 정류장 (1층 4 Gate 앞)"
        },
        "terminal2": {
            "location": "15번 정류장 (지하1층 교통센터)"
        }
    },
    "stations": [
        {
            "name": "마천역.송파파크센트럴",
            "time": "약 2시간 30분"
        },
        {
            "name": "거여역 7번출구",
            "time": "약 2시간 25분"
        },
        {
            "name": "세계로병원",
            "time": "약 2시간 20분"
        },
        {
            "name": "위례송파푸르지오,송파더센트레",
            "time": "약 2시간 15분"
        },
        {
            "name": "위례동주민센터,위례스타힐스",
            "time": "약 2시간 10분"
        },
        {
            "name": "송례중학교,송파꿈에그린",
            "time": "약 2시간 5분"
        },
        {
            "name": "송파꿈에그린아파트",
            "time": "약 2시간"
        },
        {
            "name": "위례포레샤인,위례31단지후문",
            "time": "약 1시간 55분"
        },
        {
            "name": "장지역2번출구",
            "time": "약 1시간 50분"
        },
        {
            "name": "송파푸르지오시티,한화오벨리스크",
            "time": "약 1시간 45분"
        },
        {
            "name": "세곡2지구3,4단지",
            "time": "약 1시간 40분"
        },
        {
            "name": "은곡마을,LH이편한세상",
            "time": "약 1시간 35분"
        },
        {
            "name": "세곡푸르지오",
            "time": "약 1시간 30분"
        },
        {
            "name": "안골마을",
            "time": "약 1시간 25분"
        },
        {
            "name": "코트라",
            "time": "약 1시간 20분"
        },
        {
            "name": "인천공항 제1터미널",
            "time": "약 1시간 35분 소요"
        },
        {
            "name": "인천공항 제2터미널",
            "time": "약 1시간 55분 소요"
        }
    ],
    "geoInfo": {
        "stops": [
            {
                "name": "마천역.송파파크센트럴",
                "lat": 37.494360961183716,
                "lng": 127.1511837549537
            },
            {
                "name": "거여역 7번출구",
                "lat": 37.492594912346426,
                "lng": 127.14403364301454
            },
            {
                "name": "세계로병원",
                "lat": 37.48742122554513,
                "lng": 127.14188667561776
            },
            {
                "name": "위례송파푸르지오,송파더센트레",
                "lat": 37.48065812193414,
                "lng": 127.13897106144464
            },
            {
                "name": "위례동주민센터,위례스타힐스",
                "lat": 37.481359933945036,
                "lng": 127.14355417577018
            },
            {
                "name": "송례중학교,송파꿈에그린",
                "lat": 37.47728080236676,
                "lng": 127.14153398860549
            },
            {
                "name": "송파꿈에그린아파트",
                "lat": 37.47493911586838,
                "lng": 127.14074951548628
            },
            {
                "name": "위례포레샤인,위례31단지후문",
                "lat": 37.47487490762274,
                "lng": 127.13397760019106
            },
            {
                "name": "장지역2번출구",
                "lat": 37.47815364418388,
                "lng": 127.12665738480342
            },
            {
                "name": "송파푸르지오시티,한화오벨리스크",
                "lat": 37.48099866415259,
                "lng": 127.12010465406173
            },
            {
                "name": "세곡2지구3,4단지",
                "lat": 37.47689982712724,
                "lng": 127.11008144391778
            },
            {
                "name": "은곡마을,LH이편한세상",
                "lat": 37.465382548488776,
                "lng": 127.1027058200222
            },
            {
                "name": "세곡푸르지오",
                "lat": 37.46493876430391,
                "lng": 127.09465699664334
            },
            {
                "name": "안골마을",
                "lat": 37.456238373819765,
                "lng": 127.06245689016271
            },
            {
                "name": "코트라",
                "lat": 37.46486026753568,
                "lng": 127.04425385586603
            }
        ]
    },
    "realtimeBusId": "B38836",
    "usageGuide": [
        {
            "text": "본 노선은 양방향 예매가 가능합니다.",
            "links": []
        },
        {
            "text": "서울지역: 티맵 예매",
            "links": [
                {
                    "text": "티맵",
                    "url": "https://tmapairportbus.com/search/bus?buslineId=0"
                }
            ]
        },
        {
            "text": "인천공항: 현장 예매(매표소, 무인발권기 이용)",
            "links": []
        },
        {
            "text": "현장 결제: 교통카드, 현금",
            "links": []
        },
        {
            "text": "분실물 및 기타 문의사항: 02-577-1343",
            "links": []
        }
    ]
}